# Keyed by a location id. A blog post with a matching `location` in its
# front matter is linked automatically from that location's pin.
amsterdam:
  title: Amsterdam
  lat: 52.3730796
  lng: 4.8924534
  text: |
    I was here for the Perl QA Hackathon in 2011.  I had a good time, but I
    didn't do a good job at seeing the city.  Next time, I should be a tourist.

asheville:
  title: Asheville
  lat: 35.5953630
  lng: -82.5508407
  text: |
    I've been here twice.  Once, I was at a campground with cabins for a family
    reunion.  I had a bad time.  The other time it was for YAPC, which was
    great.  Good people, and some great food.

austin:
  title: Austin,TX
  lat: 30.2711286
  lng: -97.7436995
  text: |
    I was here for a YAPC.  It was hot as heck, but I had some terrific drinks
    with my friend Tom, including a rum old fashioned.

bangkok:
  title: Bangkok
  lat: 13.7524938
  lng: 100.4935089
  text: |
    I attended IETF here and did some organized walking and boat tours with my
    colleagues.  This was great, I'm glad we took the time!

berlin:
  title: Berlin
  lat: 52.5173885
  lng: 13.3951309
  text: |
    I was here for the 2015 Perl QA Hackathon.  Berlin was great!

birmingham:
  title: Birmingham
  lat: 52.4948994
  lng: -1.8518439
  text: |
    This was the location of the 2009 Perl QA Hackathon, the second one, and I
    had a great time.  It's the first time I had a very good hamburger in the
    UK -- obviously a very memorable event!

boston:
  title: Boston
  lat: 42.3588336
  lng: -71.0578303
  text: |
    I went to Boston University, so I lived in Boston (and nearby Somerville)
    for a few years.  It's the place I spent the most time outside of
    Pennsylvania.

braunfels:
  title: Braunfels
  lat: 50.5017248
  lng: 8.4012818
  text: |
    This is my mother's home town.  I went there a few times as a kid, to visit
    my mother's family, and I've been back several times as an adult.  It's
    a lovely little village.

brisbane:
  title: Brisbane
  lat: -27.4689623
  lng: 153.0235009
  text: |
    I only went to Brisbane once, on a weekend, in February.  It was a bad time
    to go: hot and humid and terrible.  But the city wasn't so bad, and I liked
    that it had a sort of long, river-like swimming body running through it.

brussels:
  title: Brussels
  lat: 50.8467372
  lng: 4.3524930
  text: |
    I've been to Brussels a few times for FOSDEM.  I've only been in February,
    when it's grey and miserable, but all the things it's famous for are good:
    beer, fries, waffles, and Art Nouveau architecture.

cardiff:
  title: Cardiff
  lat: 51.4816546
  lng: -3.1791934
  text: |
    I used to work for IQE, a semiconductor company with its headquarters in
    Cardiff.  I went there for work a few times, and liked it.  Most of the
    time, I stayed at a boring country club near the office.  Once, I stayed
    with a colleague near Roald Dahl place, and that was great.

chicago:
  title: Chicago
  lat: 41.8755616
  lng: -87.6244212
  text: |
    I went to a few conferences in Chicago: two YAPCs and an IETF.  They were
    all good, and I'd go again!

denver:
  title: Denver
  lat: 39.74
  lng: -104.99
  type: airport
  text: I've flown through here, but never visited!

doha:
  title: Doha
  lat: 25.3108807
  lng: 51.5081812
  type: airport
  text: |
    I've flown through here.  The airport was pretty cool.  I'd like to visit
    the area more, someday.

dublin:
  title: Dublin
  lat: 53.3493795
  lng: -6.2605593
  text: |
    I attended the IETF general meeting in Dublin in 2025.  I had a very nice
    time, but IETF trips aren't usually great for seeing a city, unless you
    make special time, which I didn't.

hobart:
  title: Hobart
  lat: -42.8825088
  lng: 147.3281233
  text: |
    I've been to Hobart twice as "weekend away" trips during fortnights working
    in Melbourne.  I've really liked it both times.  Good food, the Salamanca
    market, lots of nice walking, and [MONA](https://mona.net.au/).

houston:
  title: Houston,TX
  lat: 29.7589382
  lng: -95.3676974
  text: |
    I went to a YAPC here and it was unbearably hot and humid.  Also, it was
    held on a college campus not near anything else.  I'd try it again, but …
    hoo boy!

lancaster-uk:
  title: Lancaster,UK
  lat: 54.0488219
  lng: -2.8013499
  text: |
    I went to the 2013 Perl QA Hackathon here, and it was good.  The most
    memorable bit was probably going to a farmhouse restaurant, where we could
    watch the sun set while we ate.  Also, there was some great cheese!

london:
  title: London
  lat: 51.5074456
  lng: -0.1277653
  text: |
    I've been through London quite a few times going to Cardiff or other places,
    but have really only spent a few days really visiting.  I'd like to visit
    longer.

lyon:
  title: Lyon
  lat: 45.7578137
  lng: 4.8320114
  text: |
    The Perl Toolchain Summit has been in Lyon three times, and I went to two
    of them.  Lovely city, great food, and a good time.  The first time, we
    took a side trip to the Chartreuse distillery, which was a real treat.

marlow:
  title: Marlow
  lat: 51.57
  lng: -0.78
  text: |
    It's a town in the Thames river valley.  My friend Neil lives here, and I
    was fortunate enough to visit it when attending the Perl QA Hackathon in
    2019.  It's also mentioned in Three Men and a Boat, which I always think of
    when I think of Marlow.

melbourne:
  title: Melbourne
  lat: -37.8142454
  lng: 144.9631732
  text: |
    Fastmail HQ is here, so I've been quite a few times.  It's probably the
    place I've spent the most time without actually living there full time.
    No complaints about that:  it's a wonderful city with great food, lots
    to do and see, and great transit.

montreal:
  title: Montreal
  lat: 45.5031824
  lng: -73.5698065
  text: |
    I attended IETF here twice. Once, in 2017 or so, and it was incredibly
    unpleasantly hot.  The other time, it was lovely weather, or at least not
    hot.  But the highlight of that trip wasn't Montreal, it was Quebec City.

moscow:
  title: Moscow
  lat: 55.6255780
  lng: 37.6063916
  text: |
    I took a tour here in 1992 with a childhood friend and his family.

new-orleans:
  title: New Orleans
  lat: 29.9561422
  lng: -90.0733934
  text: |
    TODO

orlando:
  title: Orlando
  lat: 28.5421218
  lng: -81.3790450
  text: |
    TODO

oslo:
  title: Oslo
  lat: 59.9133301
  lng: 10.7389701
  text: |
    TODO

paris:
  title: Paris
  lat: 48.8588897
  lng: 2.3200410
  text: |
    TODO

philadelphia:
  title: Philadelphia
  lat: 39.9528
  lng: -75.1636
  text: |
    It's where I live!
  links:
    - text: Philadelphia
      url: https://en.wikipedia.org/wiki/Philadelphia

phoenix:
  title: Phoenix
  lat: 33.4484367
  lng: -112.0741410
  text: |
    TODO

portland:
  title: Portland,OR
  lat: 45.5202471
  lng: -122.6741940
  text: |
    TODO

quebec-city:
  title: Quebec City
  lat: 46.8137431
  lng: -71.2084061
  text: |
    We made a day trip here while in Montreal for IETF.  Quebec City was
    terrific, and while it was small, I could imagine spending a few quiet days
    here just enjoying the vibe and the scenery.

rio:
  title: Rio de Janeiro
  lat: -22.911111
  lng: -43.205556
  text: I went here on vacation in June 2025, and it was terrific!

salt-lake-city:
  title: Salt Lake City
  lat: 40.7596198
  lng: -111.8867970
  text: |
    TODO

san-francisco:
  title: San Francisco
  lat: 37.7879363
  lng: -122.4075201
  text: |
    TODO

sofia:
  title: Sofia
  lat: 42.6977028
  lng: 23.3217359
  text: |
    TODO

st-louis:
  title: St. Louis
  lat: 38.6254063
  lng: -90.1900090
  text: |
    TODO

st-petersburg:
  title: St. Petersburg
  lat: 59.9606739
  lng: 30.1586551
  text: |
    I took a tour here in 1992 with a childhood friend and his family.

sydney:
  title: Sydney
  lat: -33.8698439
  lng: 151.2082848
  text: |
    TODO

tokyo:
  title: Tokyo
  lat: 35.689722
  lng: 139.692222
  text: |
    I was incredibly lucky to be invited to speak at YAPC::Asia in Tokyo,
    *three times*!  Once each in 2011, 2013, and 2015.  Tokyo was amazing, and
    I would love to go back.

toronto:
  title: Toronto
  lat: 43.6534817
  lng: -79.3839347
  text: |
    TODO

vienna:
  title: Vienna
  lat: 48.2083537
  lng: 16.3725042
  text: |
    TODO

washington-dc:
  title: Washington, DC
  lat: 38.8950982
  lng: -77.0363849
  text: |
    TODO

