# Keyed by a location id. A blog post with a matching `location` in its
# front matter is linked automatically from that location's pin.
amsterdam:
  title: Amsterdam
  lat: 52.3730796
  lng: 4.8924534
  text: |
    TODO

asheville:
  title: Asheville
  lat: 35.5953630
  lng: -82.5508407
  text: |
    TODO

austin:
  title: Austin,TX
  lat: 30.2711286
  lng: -97.7436995
  text: |
    TODO

bangkok:
  title: Bangkok
  lat: 13.7524938
  lng: 100.4935089
  text: |
    TODO

berlin:
  title: Berlin
  lat: 52.5173885
  lng: 13.3951309
  text: |
    TODO

birmingham:
  title: Birmingham
  lat: 52.4948994
  lng: -1.8518439
  text: |
    TODO

boston:
  title: Boston
  lat: 42.3588336
  lng: -71.0578303
  text: |
    TODO

braunfels:
  title: Braunfels
  lat: 50.5017248
  lng: 8.4012818
  text: |
    TODO

brisbane:
  title: Brisbane
  lat: -27.4689623
  lng: 153.0235009
  text: |
    TODO

brussels:
  title: Brussels
  lat: 50.8467372
  lng: 4.3524930
  text: |
    TODO

cardiff:
  title: Cardiff
  lat: 51.4816546
  lng: -3.1791934
  text: |
    TODO

chicago:
  title: Chicago
  lat: 41.8755616
  lng: -87.6244212
  text: |
    TODO

denver:
  title: Denver
  lat: 39.74
  lng: -104.99
  type: airport
  text: I've flown through here, but never visited!

hobart:
  title: Hobart
  lat: -42.8825088
  lng: 147.3281233
  text: |
    TODO

houston:
  title: Houston,TX
  lat: 29.7589382
  lng: -95.3676974
  text: |
    TODO

lancaster-uk:
  title: Lancaster,UK
  lat: 54.0488219
  lng: -2.8013499
  text: |
    TODO

london:
  title: London
  lat: 51.5074456
  lng: -0.1277653
  text: |
    TODO

lyon:
  title: Lyon
  lat: 45.7578137
  lng: 4.8320114
  text: |
    TODO

marlow:
  title: Marlow
  lat: 51.57
  lng: -0.78
  text: |
    It's a town in the Thames river valley.  My friend Neil lives here, and I
    was fortunate enough to visit it when attending the Perl QA Hackathon in
    2019.  It's also mentioned in Three Men and a Boat, which I always think of
    when I think of Marlow.

melbourne:
  title: Melbourne
  lat: -37.8142454
  lng: 144.9631732
  text: |
    TODO

moscow:
  title: Moscow
  lat: 55.6255780
  lng: 37.6063916
  text: |
    TODO

new-orleans:
  title: New Orleans
  lat: 29.9561422
  lng: -90.0733934
  text: |
    TODO

orlando:
  title: Orlando
  lat: 28.5421218
  lng: -81.3790450
  text: |
    TODO

oslo:
  title: Oslo
  lat: 59.9133301
  lng: 10.7389701
  text: |
    TODO

paris:
  title: Paris
  lat: 48.8588897
  lng: 2.3200410
  text: |
    TODO

philadelphia:
  title: Philadelphia
  lat: 39.9528
  lng: -75.1636
  text: |
    It's where I live!
  links:
    - text: Philadelphia
      url: https://en.wikipedia.org/wiki/Philadelphia

phoenix:
  title: Phoenix
  lat: 33.4484367
  lng: -112.0741410
  text: |
    TODO

portland:
  title: Portland,OR
  lat: 45.5202471
  lng: -122.6741940
  text: |
    TODO

rio:
  title: Rio de Janeiro
  lat: -22.911111
  lng: -43.205556
  text: I went here on vacation in June 2025, and it was terrific!

salt-lake-city:
  title: Salt Lake City
  lat: 40.7596198
  lng: -111.8867970
  text: |
    TODO

san-francisco:
  title: San Francisco
  lat: 37.7879363
  lng: -122.4075201
  text: |
    TODO

sofia:
  title: Sofia
  lat: 42.6977028
  lng: 23.3217359
  text: |
    TODO

st-louis:
  title: St. Louis
  lat: 38.6254063
  lng: -90.1900090
  text: |
    TODO

st-petersburg:
  title: St. Petersburg
  lat: 59.9606739
  lng: 30.1586551
  text: |
    TODO

sydney:
  title: Sydney
  lat: -33.8698439
  lng: 151.2082848
  text: |
    TODO

tokyo:
  title: Tokyo
  lat: 35.689722
  lng: 139.692222
  text: |
    I was incredibly lucky to be invited to speak at YAPC::Asia in Tokyo,
    *three times*!  Once each in 2011, 2013, and 2015.  Tokyo was amazing, and
    I would love to go back.

toronto:
  title: Toronto
  lat: 43.6534817
  lng: -79.3839347
  text: |
    TODO

vienna:
  title: Vienna
  lat: 48.2083537
  lng: 16.3725042
  text: |
    TODO

washington-dc:
  title: Washington, DC
  lat: 38.8950982
  lng: -77.0363849
  text: |
    TODO

